[
  {
    "name": "新竹市私立名伸老人養護中心",
    "postcode": 30057,
    "addr": "新竹市北區東大路三段232巷2號",
    "tel": "03-5366472",
    "lat": 24.833572,
    "lng": 120.950958
  },
  {
    "name": "新竹市私立懷親老人養護中心",
    "postcode": 30094,
    "addr": "新竹市香山區中華路五段599巷3號",
    "tel": "03-5377686",
    "lat": 24.769808,
    "lng": 120.917241
  },
  {
    "name": "新竹市私立青草湖長壽老人養護中心",
    "postcode": 30066,
    "addr": "新竹市東區明湖路1006巷102弄1、2、4號",
    "tel": "03-5293859",
    "lat": 24.768438,
    "lng": 120.977305
  },
  {
    "name": "新竹市私立建嘉老人長期照顧中心(養護型)",
    "postcode": 30094,
    "addr": "新竹市香山區中華路五段392、396號",
    "tel": "03-5386677",
    "lat": 24.778692,
    "lng": 120.918327
  },
  {
    "name": "新竹市私立松慈老人養護中心",
    "postcode": 30044,
    "addr": "新竹市北區東大路二段65巷36號",
    "tel": "03-5355366",
    "lat": 24.812081,
    "lng": 120.967198
  },
  {
    "name": "新竹市私立慈慧老人長期照顧中心（養護型）",
    "postcode": 30045,
    "addr": "新竹市北區新民街27之1號",
    "tel": "03-5266200",
    "lat": 24.808309,
    "lng": 120.96327
  },
  {
    "name": "新竹市私立仙樂園老人長期照顧中心（養護型）",
    "postcode": 30095,
    "addr": "新竹市香山區中華路六段647巷75弄1之3號",
    "tel": "03-5371155",
    "lat": 24.733827,
    "lng": 120.920138
  },
  {
    "name": "新竹市私立人瑞老人長期照顧中心(養護型)",
    "postcode": 30053,
    "addr": "新竹市北區公道五路四段547號",
    "tel": "03-5330080",
    "lat": 24.827786,
    "lng": 120.964246
  },
  {
    "name": "新竹市私立弘愛老人長期照顧中心(養護型)",
    "postcode": 30057,
    "addr": "新竹市北區東大路三段180號",
    "tel": "03-5366906",
    "lat": 24.832599,
    "lng": 120.952281
  },
  {
    "name": "新竹市私立欣安長期照顧中心(養護型)",
    "postcode": 30061,
    "addr": "新竹市東區南大路428號2樓、3樓",
    "tel": "03-5629737",
    "lat": 24.79717,
    "lng": 120.968696
  },
  {
    "name": "財團法人基督教中華協力會附設新竹市私立伯大尼老人養護中心",
    "postcode": 30048,
    "addr": "新竹市北區延平路一段491號",
    "tel": "03-5244222",
    "lat": 24.804871,
    "lng": 120.945602
  },
  {
    "name": "財團法人台灣省私立桃園仁愛之家附設新竹老人養護中心",
    "postcode": 30045,
    "addr": "新竹市北區西門街116號",
    "tel": "03-5285585",
    "lat": 24.80161,
    "lng": 120.963556
  }
]