[
  {
    "name": "中華路二段445號(火車站前廣場)",
    "lat": 24.801815,
    "lng": 120.971459
  },
  {
    "name": "勝利路2號(對面圓環人行道)",
    "lat": 24.803866,
    "lng": 120.970556
  },
  {
    "name": "中央路106號(對面人行道)",
    "lat": 24.806138,
    "lng": 120.96926
  },
  {
    "name": "西大路317號(停車場前人行道)",
    "lat": 24.80167,
    "lng": 120.96576
  },
  {
    "name": "東門街32號(汽車停車場)",
    "lat": 24.804317,
    "lng": 120.973662
  },
  {
    "name": "中正路146號(機車停車場)",
    "lat": 24.808979,
    "lng": 120.967098
  },
  {
    "name": "延平路一段159巷22號(對面機車停車格)",
    "lat": 24.803791,
    "lng": 120.956616
  },
  {
    "name": "西門街1號(對面汽車停車格)",
    "lat": 24.803382,
    "lng": 120.966675
  },
  {
    "name": "公園路300號(左側人行道)",
    "lat": 24.802579,
    "lng": 120.978717
  },
  {
    "name": "民權路171號(對面人行道)",
    "lat": 24.809326,
    "lng": 120.974258
  },
  {
    "name": "中央路364-1號(網球場前人行道)",
    "lat": 24.811226,
    "lng": 120.979624
  },
  {
    "name": "東南街1巷6號(轉運站對面人行廣場)",
    "lat": 24.800896,
    "lng": 120.973191
  },
  {
    "name": "光復路二段690號(水源街對面公園人行道)",
    "lat": 24.800074,
    "lng": 120.991278
  },
  {
    "name": "新源街138號(對面人行道)",
    "lat": 24.802771,
    "lng": 120.9932
  },
  {
    "name": "光復路二段101號(面校門右側人行道)",
    "lat": 24.796842,
    "lng": 120.996686
  },
  {
    "name": "鐵道路一段28巷79號(對面公園綠帶)",
    "lat": 24.812458,
    "lng": 120.985033
  },
  {
    "name": "南大路560號(對面人行道)",
    "lat": 24.794294,
    "lng": 120.964533
  },
  {
    "name": "竹蓮街72號(對面人行道)",
    "lat": 24.798283,
    "lng": 120.97042
  },
  {
    "name": "國華街69號(區公所前廣場)",
    "lat": 24.816444,
    "lng": 120.970561
  },
  {
    "name": "民生路309號(旁公園綠帶)",
    "lat": 24.813884,
    "lng": 120.973992
  },
  {
    "name": "武陵路157號(對面人行道)",
    "lat": 24.820368,
    "lng": 120.967956
  },
  {
    "name": "中山路與中山路452巷口(西雅公園)",
    "lat": 24.799426,
    "lng": 120.957256
  },
  {
    "name": "關新路21號(大樓前人行道)",
    "lat": 24.784875,
    "lng": 121.01833
  },
  {
    "name": "金山街63號(對面公園綠地)",
    "lat": 24.777737,
    "lng": 121.021936
  },
  {
    "name": "牛埔東路260號(校門右側人行道)",
    "lat": 24.796454,
    "lng": 120.944523
  },
  {
    "name": "中華路二段2-1號前人行道",
    "lat": 24.809629,
    "lng": 120.983512
  },
  {
    "name": "關東路310號(車站出口右側人行道)",
    "lat": 24.788113,
    "lng": 121.021833
  },
  {
    "name": "千甲路138-5號(民宅對面高架橋下)",
    "lat": 24.807119,
    "lng": 121.002064
  },
  {
    "name": "元培街32巷30號(車站出口前廣場)",
    "lat": 24.786994,
    "lng": 120.92856
  },
  {
    "name": "中華路五段347巷2弄27號(火車站前廣場)",
    "lat": 24.763156,
    "lng": 120.913819
  },
  {
    "name": "大學路200號(對面人行道)",
    "lat": 24.7894,
    "lng": 121.00026
  },
  {
    "name": "元培街306號(校門對面機車停車場)",
    "lat": 24.778031,
    "lng": 120.940465
  },
  {
    "name": "東大路二段537號(對面汽車停車場)",
    "lat": 24.821613,
    "lng": 120.959777
  },
  {
    "name": "光復路二段101號(小吃部左側廣場)",
    "lat": 24.79288,
    "lng": 120.99347
  },
  {
    "name": "大學路1001號(女二宿前廣場)",
    "lat": 24.7849,
    "lng": 120.99964
  },
  {
    "name": "光復路二段153號(對面人行道)",
    "lat": 24.79974,
    "lng": 120.9942
  },
  {
    "name": "中華路二段188號(前人行道)",
    "lat": 24.80613,
    "lng": 120.978
  },
  {
    "name": "新莊街212號旁(公園人行道)",
    "lat": 24.78743,
    "lng": 121.01736
  },
  {
    "name": "東大路二段261號(旁人行道)",
    "lat": 24.81713,
    "lng": 120.96398
  },
  {
    "name": "經國路三段78巷18號(對面公園人行道)",
    "lat": 24.79912,
    "lng": 120.95243
  },
  {
    "name": "明湖路773號對面公園人行道",
    "lat": 24.77386,
    "lng": 120.97008
  },
  {
    "name": "博愛街5巷2號對面停車場",
    "lat": 24.797087,
    "lng": 120.987619
  },
  {
    "name": "延平路一段541號對面人行道",
    "lat": 24.805122,
    "lng": 120.944251
  },
  {
    "name": "民富街141號對面人行道",
    "lat": 24.807606,
    "lng": 120.960621
  },
  {
    "name": "新安路2號前人行道",
    "lat": 24.78142,
    "lng": 121.00607
  },
  {
    "name": "工業東二路1號旁人行道",
    "lat": 24.78004,
    "lng": 121.0054
  },
  {
    "name": "竹村七路7號前人行道",
    "lat": 24.77874,
    "lng": 121.01078
  },
  {
    "name": "湖濱二路201號旁(人行道)",
    "lat": 24.77739,
    "lng": 121.01466
  },
  {
    "name": "力行二路2號前人行道",
    "lat": 24.77279,
    "lng": 121.01881
  },
  {
    "name": "篤行路6號前人行道",
    "lat": 24.77092,
    "lng": 121.02517
  },
  {
    "name": "園區三路1號(對面人行道)",
    "lat": 24.77282,
    "lng": 121.01019
  },
  {
    "name": "園區二路15號(斜對面人行道)",
    "lat": 24.77884,
    "lng": 120.99843
  }
]