[
  {
    "name": "成德高中",
    "addr": "新竹市北區崧嶺路128巷38號",
    "lat": 24.8440556,
    "lng": 120.92733229999999
  },
  {
    "name": "香山高中",
    "addr": "新竹市香山區元培街124號",
    "lat": 24.7980981,
    "lng": 121.00294600000007
  },
  {
    "name": "建功高中",
    "addr": "新竹市東區建功二路17號",
    "lat": 24.7901418,
    "lng": 120.9656076
  },
  {
    "name": "建華國中",
    "addr": "新竹市東區建華里2鄰學府路2號",
    "lat": 24.7641187,
    "lng": 120.91267649999998
  },
  {
    "name": "培英國中",
    "addr": "新竹市東區東山里學府路4號",
    "lat": 24.7860605,
    "lng": 121.01172099999997
  },
  {
    "name": "光華國中",
    "addr": "新竹市北區光華北街10號",
    "lat": 24.8179689,
    "lng": 120.97385540000005
  },
  {
    "name": "育賢國中",
    "addr": "新竹市東區南大路569號",
    "lat": 24.7943145,
    "lng": 120.97803499999998
  },
  {
    "name": "光武國中",
    "addr": "新竹市東區光復路一段512號",
    "lat": 24.7939644,
    "lng": 120.97672520000003
  },
  {
    "name": "南華國中",
    "addr": "新竹市北區海濱路55號",
    "lat": 24.7851705,
    "lng": 120.93033850000006
  },
  {
    "name": "富禮國中",
    "addr": "新竹市香山區富禮街16號",
    "lat": 24.7909191,
    "lng": 120.95333499999992
  },
  {
    "name": "三民國中",
    "addr": "新竹市東區自由路95巷15號",
    "lat": 24.8052619,
    "lng": 120.94194370000002
  },
  {
    "name": "內湖國中",
    "addr": "新竹市香山區五福路一段12號",
    "lat": 24.8119248,
    "lng": 120.98028150000005
  },
  {
    "name": "虎林國中",
    "addr": "新竹市香山區延平路二段76號",
    "lat": 24.8072882,
    "lng": 120.95559830000002
  },
  {
    "name": "新科國中",
    "addr": "新竹市光復路一段89巷88號",
    "lat": 24.7802672,
    "lng": 121.02416419999997
  },
  {
    "name": "竹光國中",
    "addr": "新竹市北區和平路1號",
    "lat": 24.7968093,
    "lng": 120.96636799999999
  },
  {
    "name": "東門國小",
    "addr": "新竹市東區民族路33號",
    "lat": 24.8000594,
    "lng": 120.98507459999996
  },
  {
    "name": "民富國小",
    "addr": "新竹市北區西大路561號",
    "lat": 24.8084101,
    "lng": 120.96050539999999
  },
  {
    "name": "新竹國小",
    "addr": "新竹市東區興學街106號",
    "lat": 24.8136446,
    "lng": 120.96602250000001
  },
  {
    "name": "東園國小",
    "addr": "新竹市東區園後街25號",
    "lat": 24.7424734,
    "lng": 120.91114040000002
  },
  {
    "name": "北門國小",
    "addr": "新竹市北區水田街33號",
    "lat": 24.8049301,
    "lng": 120.97232259999998
  },
  {
    "name": "載熙國小",
    "addr": "新竹市北區東大路二段386號",
    "lat": 24.8195322,
    "lng": 120.96232140000006
  },
  {
    "name": "三民國小",
    "addr": "新竹市東區自由路66號",
    "lat": 24.8126349,
    "lng": 120.98140290000003
  },
  {
    "name": "龍山國小",
    "addr": "新竹市東區光復路一段574號",
    "lat": 24.7893476,
    "lng": 121.0073228
  },
  {
    "name": "西門國小",
    "addr": "新竹市北區北大路450號",
    "lat": 24.8026949,
    "lng": 120.95967440000004
  },
  {
    "name": "竹蓮國小",
    "addr": "新竹市東區食品路226號",
    "lat": 24.789452,
    "lng": 120.92716399999995
  },
  {
    "name": "關東國小",
    "addr": "新竹市東區關東路53號",
    "lat": 24.8052582,
    "lng": 120.94105680000007
  },
  {
    "name": "虎林國小",
    "addr": "新竹市香山區延平路二段78號",
    "lat": 24.7959792,
    "lng": 120.97410660000003
  },
  {
    "name": "大庄國小",
    "addr": "新竹市香山區大庄路48號",
    "lat": 24.8388283,
    "lng": 120.93962429999999
  },
  {
    "name": "南寮國小",
    "addr": "新竹市北區東大路三段465號",
    "lat": 24.7840474,
    "lng": 121.02220360000001
  },
  {
    "name": "香山國小",
    "addr": "新竹市香山區牛埔東路260號",
    "lat": 24.7963617,
    "lng": 120.94402460000003
  },
  {
    "name": "內湖國小",
    "addr": "新竹市香山區內湖路109號",
    "lat": 24.7422354,
    "lng": 120.90613459999997
  },
  {
    "name": "建功國小",
    "addr": "新竹市東區建功一路104巷22號",
    "lat": 24.7979032,
    "lng": 120.95037990000003
  },
  {
    "name": "頂埔國小",
    "addr": "新竹市香山區頂埔路23號",
    "lat": 24.8122907,
    "lng": 121.00297660000001
  },
  {
    "name": "水源國小",
    "addr": "新竹市東區仰德路11號",
    "lat": 24.7454896,
    "lng": 120.93308819999993
  },
  {
    "name": "朝山國小",
    "addr": "新竹市香山區中華路五段648巷126號",
    "lat": 24.7658411,
    "lng": 120.91397649999999
  },
  {
    "name": "南隘國小",
    "addr": "新竹市香山區南隘路二段31號",
    "lat": 24.8125468,
    "lng": 120.9220871
  },
  {
    "name": "港南國小",
    "addr": "新竹市香山區海埔路171巷91號",
    "lat": 24.8007091,
    "lng": 120.99918200000002
  },
  {
    "name": "茄苳國小",
    "addr": "新竹市香山區茄苳里茄苳路70號",
    "lat": 24.7557317,
    "lng": 120.94631679999998
  },
  {
    "name": "大湖國小",
    "addr": "新竹市香山區五福路一段530號",
    "lat": 24.7262141,
    "lng": 120.92941969999993
  },
  {
    "name": "舊社國小",
    "addr": "新竹市北區金竹路99號",
    "lat": 24.7795809,
    "lng": 120.98357399999998
  },
  {
    "name": "陽光國小",
    "addr": "新竹市東區明湖路200號",
    "lat": 24.7786201,
    "lng": 121.01904100000002
  },
  {
    "name": "華德福實驗學校",
    "addr": "新竹市香山區中華路6段331巷168號",
    "lat": 24.7898278,
    "lng": 120.96795500000007
  },
  {
    "name": "科園國小",
    "addr": "新竹市東區科學園路171號",
    "lat": 24.7820058,
    "lng": 121.01188189999993
  },
  {
    "name": "高峰國小",
    "addr": "新竹市東區高翠路332巷2號",
    "lat": 24.7686541,
    "lng": 120.97801340000001
  },
  {
    "name": "青草湖國小",
    "addr": "新竹市東區明湖路1211號",
    "lat": 24.8229427,
    "lng": 120.97359260000007
  },
  {
    "name": "國立園區實中",
    "addr": "新竹市介壽路300號",
    "lat": 24.7417697,
    "lng": 120.91375140000002
  },
  {
    "name": "國立清大附小",
    "addr": "新竹市北區四維路47號",
    "lat": 24.8121263,
    "lng": 120.97159590000001
  },
  {
    "name": "私立曙光小學",
    "addr": "新竹市東區北大路70號",
    "lat": 24.7997382,
    "lng": 120.96163130000002
  },
  {
    "name": "私立康橋中小學",
    "addr": "新竹市東區柴橋里藝術路2號",
    "lat": 24.810662,
    "lng": 120.95695920000003
  },
  {
    "name": "私立曙光女中",
    "addr": "新竹市東區北大路61號",
    "lat": 24.811149,
    "lng": 120.97282619999999
  },
  {
    "name": "私立光復中學",
    "addr": "新竹市東區光復路二段153號",
    "lat": 24.7983869,
    "lng": 120.99405639999998
  },
  {
    "name": "私立磐石中學",
    "addr": "新竹市北區西大路683號",
    "lat": 24.7677745,
    "lng": 120.96764499999995
  }
]