單位名稱,負責人,聯絡人,電話,地址,經度,緯度
新竹市政府委託財團法人伊甸社會福利基金會新竹分會辦理新竹市啟能生活照顧中心,葉瀛賓,張貴貴,03-5628848,新竹市竹蓮街6號4-5樓,24.7969551,120.972713
新竹市政府委託財團法人心路基金會新竹分會辦理新竹市兒童日間服務中心,馮碧華,楊玉玲,03-5612511,新竹市竹蓮街6號6-7樓,24.7969551,120.972713
財團法人創世社會福利基金會附設新竹市私立創世清寒植物人安養院,曹 慶,曾綿美,03-5231137,新竹市和平路142號2樓,24.8104519,120.9551202
財團法人新竹市私立愛恆啟能中心,戴耀賽,高美惠,03-5366555,新竹市東大路四段35號,24.841358,120.935496
財團法人新竹市天主教仁愛社會福利基金會附設晨曦發展中心,李克勉,羅詠娜,03-5784633,新竹市慈祥路2號,24.7919546,121.0081357
財團法人新竹市私立天主教仁愛啟智中心,劉丹桂,洪美玲,03-5670013,新竹市慈祥路99號2樓,24.7931783,121.0086989
