[
  {
    "name": "新竹馬偕紀念醫院",
    "addr": "新竹市光復路二段690號",
    "tel": "03-6119595#6040",
    "lat": 24.800045,
    "lng": 120.990663
  },
  {
    "name": "國立台灣大學醫學院附設醫院新竹分院",
    "addr": "新竹市經國路一段442巷25號",
    "tel": "03-5326151",
    "lat": 24.816479,
    "lng": 120.979513
  },
  {
    "name": "新竹國泰綜合醫院",
    "addr": "新竹市中華路二段678號",
    "tel": "03-5278999",
    "lat": 24.798235,
    "lng": 120.965313
  },
  {
    "name": "常春復健科診所",
    "addr": "新竹市西門街146號1樓",
    "tel": "03-5255799",
    "lat": 24.801447,
    "lng": 120.963201
  },
  {
    "name": "闕弘昌復健科診所",
    "addr": "新竹市北大路32號",
    "tel": "03-5340860",
    "lat": 24.813068,
    "lng": 120.97312
  },
  {
    "name": "新朝內科復健診所",
    "addr": "新竹市林森路299號",
    "tel": "03-5261718",
    "lat": 24.797201,
    "lng": 120.961448
  },
  {
    "name": "余鄭錦峰復健診所",
    "addr": "新竹市南門街22號",
    "tel": "03-5223339",
    "lat": 24.800527,
    "lng": 120.967725
  },
  {
    "name": "安禾安新聯合診所",
    "addr": "新竹市經國路1段379巷8號",
    "tel": "03-5353336",
    "lat": 24.814318,
    "lng": 120.979031
  },
  {
    "name": "林正修診所",
    "addr": "新竹市新光路38號",
    "tel": "03-5166746",
    "lat": 24.802035,
    "lng": 120.988692
  },
  {
    "name": "能清安欣診所",
    "addr": "新竹市中央路214號",
    "tel": "03-5357600",
    "lat": 24.808983,
    "lng": 120.97499
  },
  {
    "name": "丘氏中醫診所",
    "addr": "新竹市西大路718號",
    "tel": "03-5347839",
    "lat": 24.809571,
    "lng": 120.95993
  },
  {
    "name": "樺葳中醫診所",
    "addr": "新竹市水田街174號",
    "tel": "03-5356331",
    "lat": 24.815792,
    "lng": 120.968576
  },
  {
    "name": "仁和復健科診所",
    "addr": "新竹縣竹北市光明一路238號",
    "tel": "03-5586126",
    "lat": 24.830575,
    "lng": 121.015135
  },
  {
    "name": "六竹診所",
    "addr": "新竹縣竹北市嘉豐二街一段48號",
    "tel": "03-5505550",
    "lat": 24.816544,
    "lng": 121.029569
  },
  {
    "name": "東元綜合醫院",
    "addr": "新竹縣竹北市縣政二路69號",
    "tel": "03-5527000 #1366",
    "lat": 24.823708,
    "lng": 121.014411
  },
  {
    "name": "安立身心診所",
    "addr": "新竹縣竹北市莊敬北路78號",
    "tel": "03-6577622",
    "lat": 24.824899,
    "lng": 121.02432
  },
  {
    "name": "慶源復健科診所",
    "addr": "新竹縣竹北市光明三路65號",
    "tel": "03-5589686",
    "lat": 24.829804,
    "lng": 121.008808
  },
  {
    "name": "光明復健診所",
    "addr": "新竹縣竹北市莊敬五街11號",
    "tel": "03-6583298",
    "lat": 24.821552,
    "lng": 121.026031
  }
]