[
  {
    "name": "新竹市警察局",
    "postcode": 300,
    "addr": "新竹市北區中山路1號",
    "tel": "03-5249234",
    "lat": 24.8063792,
    "lng": 120.9685416
  },
  {
    "name": "第一分局",
    "postcode": 300,
    "addr": "新竹市北區竹光路290號",
    "tel": "03-5222725",
    "lat": 24.8103301,
    "lng": 120.9556445
  },
  {
    "name": "北門派出所",
    "postcode": 300,
    "addr": "新竹市北區北大路218號",
    "tel": "03-5222223",
    "lat": 24.8080588,
    "lng": 120.965021
  },
  {
    "name": "西門派出所",
    "postcode": 300,
    "addr": "新竹市北區中山路300號",
    "tel": "03-5222452",
    "lat": 24.8020046,
    "lng": 120.9612575
  },
  {
    "name": "湳雅派出所",
    "postcode": 300,
    "addr": "新竹市北區湳雅街116號",
    "tel": "03-5356710",
    "lat": 24.8196109,
    "lng": 120.9730005
  },
  {
    "name": "樹林頭派出所",
    "postcode": 300,
    "addr": "新竹市北區竹光路290號",
    "tel": "03-5267652",
    "lat": 24.8103301,
    "lng": 120.9556445
  },
  {
    "name": "南寮派出所",
    "postcode": 300,
    "addr": "新竹市北區東大路3段541號",
    "tel": "03-5362334",
    "lat": 24.8404264,
    "lng": 120.9373719
  },
  {
    "name": "第二分局",
    "postcode": 300,
    "addr": "新竹市東區光復路2段798號",
    "tel": "03-5728750",
    "lat": 24.8014732,
    "lng": 120.9864216
  },
  {
    "name": "東門派出所",
    "postcode": 300,
    "addr": "新竹市東區東門街87號",
    "tel": "03-5222607",
    "lat": 24.8041209,
    "lng": 120.9698379
  },
  {
    "name": "文華派出所",
    "postcode": 300,
    "addr": "新竹市東區經國路1段488號",
    "tel": "03-5332120",
    "lat": 24.8146284,
    "lng": 120.9771082
  },
  {
    "name": "東勢派出所",
    "postcode": 300,
    "addr": "新竹市東區光復路2段798號",
    "tel": "03-5728758",
    "lat": 24.8014732,
    "lng": 120.9864216
  },
  {
    "name": "關東橋派出所",
    "postcode": 300,
    "addr": "新竹市東區介壽路200號",
    "tel": "03-5775758",
    "lat": 24.7788586,
    "lng": 121.0189334
  },
  {
    "name": "埔頂派出所",
    "postcode": 300,
    "addr": "新竹市東區光復路1段568號",
    "tel": "03-5773999",
    "lat": 24.7890292,
    "lng": 121.0078543
  },
  {
    "name": "第三分局",
    "postcode": 300,
    "addr": "新竹市香山區牛埔路432號",
    "tel": "03-5380040",
    "lat": 24.7976284,
    "lng": 120.9426109
  },
  {
    "name": "香山派出所",
    "postcode": 300,
    "addr": "新竹市香山區牛埔路432號",
    "tel": "03-5386348",
    "lat": 24.7976284,
    "lng": 120.9426109
  },
  {
    "name": "南門派出所",
    "postcode": 300,
    "addr": "新竹市東區勝利路85號",
    "tel": "03-5222224",
    "lat": 24.8003105,
    "lng": 120.9670396
  },
  {
    "name": "青草湖派出所",
    "postcode": 300,
    "addr": "新竹市東區明湖路666號",
    "tel": "03-5201563",
    "lat": 24.774013,
    "lng": 120.9663914
  },
  {
    "name": "中華派出所",
    "postcode": 300,
    "addr": "新竹市香山區大庄路105號",
    "tel": "03-5302487",
    "lat": 24.7915684,
    "lng": 120.9261705
  },
  {
    "name": "朝山派出所",
    "postcode": 300,
    "addr": "新竹市香山區中華路5段690號",
    "tel": "03-5373165",
    "lat": 24.7661971,
    "lng": 120.9146963
  }
]